{
  "data": [
    {
      "id": 1,
      "cafeId": 1,
      "groupName": "SEVENTEEN",
      "name": "HOSHI",
      "char": "🐯",
      "cafeName": "스페이스 포레",
      "station": "신용산역",
      "address": "서울 용산구 한강대로 137",
      "start": "23.06.15",
      "end": "23.06.18",
      "openingHours": "11:00 ~ 19:00",
      "latitude": 37.531804,
      "longitude": 126.970022,
      "cafeImage": ["../poster/newmoon.png", "../poster/newmoon(2).png"]
    },
    {
      "id": 2,
      "cafeId": 2,
      "groupName": "SEVENTEEN",
      "name": "HOSHI",
      "char": "🐯",
      "cafeName": "해시태그유",
      "station": "대전 시청역",
      "address": "대전 서구 문정로 160 1층",
      "start": "23.06.14",
      "end": "23.06.17",
      "openingHours": "12:00 ~ 20:00",
      "latitude": 36.349019,
      "longitude": 127.395672,
      "cafeImage": ["../poster/hbd_1004.png", "../poster/hbd_1004(2).png"]
    },
    {
      "id": 3,
      "cafeId": 3,
      "groupName": "SEVENTEEN",
      "name": "HOSHI",
      "char": "🐯",
      "cafeName": "카페 세화",
      "station": "홍대입구역",
      "address": "서울 마포구 성미산로26길 8 1층",
      "start": "23.06.15",
      "end": "23.06.17",
      "openingHours": "12:00 ~ 19:00",
      "latitude": 37.563538,
      "longitude": 126.922243,
      "cafeImage": [
        "../poster/yourtigerlovesu.png",
        "../poster/yourtigerlovesu(2).png"
      ]
    },
    {
      "id": 4,
      "cafeId": 4,
      "groupName": "SEVENTEEN",
      "name": "HOSHI",
      "char": "🐯",
      "cafeName": "카페모멘트",
      "station": "부산 서면역",
      "address": "부산 부산진구 신천대로 50번길 66 4층",
      "start": "23.06.15",
      "end": "23.06.17",
      "openingHours": "11:00 ~ 20:00",
      "latitude": 35.153681,
      "longitude": 129.06005,
      "cafeImage": ["../poster/hosha0526.png", "../poster/hosha0526(2).png"]
    },
    {
      "id": 5,
      "cafeId": 5,
      "groupName": "SEVENTEEN",
      "name": "HOSHI",
      "char": "🐯",
      "cafeName": "롱브르378",
      "station": "신용산역",
      "address": "서울 용산구 한강대로10길 11-54 1층",
      "start": "23.06.15",
      "end": "23.06.17",
      "openingHours": "10:00 ~ 18:00",
      "latitude": 37.524736,
      "longitude": 126.964769,
      "cafeImage": ["../poster/shireal0615.png", "../poster/shireal0615(2).png"]
    },
    {
      "id": 6,
      "cafeId": 6,
      "groupName": "SEVENTEEN",
      "name": "HOSHI",
      "char": "🐯",
      "cafeName": "카페 비전문",
      "station": "부산 전포역",
      "address": "부산 부산진구 서전로38번길 76 4층",
      "start": "23.06.15",
      "end": "23.06.17",
      "openingHours": "12:00 ~ 19:00",
      "latitude": 35.159222,
      "longitude": 129.062854,
      "cafeImage": ["../poster/svt_vibe.png", "../poster/svt_vibe(2).png"]
    },
    {
      "id": 7,
      "cafeId": 7,
      "groupName": "SEVENTEEN",
      "name": "HOSHI",
      "char": "🐯",
      "cafeName": "카페비비드",
      "station": "합정역",
      "address": "서울 마포구 독막로3길 28-18 1층",
      "start": "23.06.10",
      "end": "23.06.15",
      "openingHours": "12:00 ~ 20:00",
      "latitude": 37.549692,
      "longitude": 126.917874,
      "cafeImage": ["../poster/tillthetop.png", "../poster/tillthetop(2).png"]
    },
    {
      "id": 8,
      "cafeId": 8,
      "groupName": "SEVENTEEN",
      "name": "HOSHI",
      "char": "🐯",
      "cafeName": "하이타운 서울",
      "station": "홍대입구역",
      "address": "서울 마포구 와우산로29다길 10",
      "start": "23.06.15",
      "end": "23.06.18",
      "openingHours": "12:00 ~ 19:00",
      "latitude": 37.555097,
      "longitude": 126.927638,
      "cafeImage": [
        "../poster/hohozzizizi.png",
        "../poster/hohozzizizi(2).png",
        "../poster/hohozzizizi(3).png"
      ]
    },
    {
      "id": 9,
      "cafeId": 9,
      "groupName": "SEVENTEEN",
      "name": "MINGYU",
      "char": "🐶",
      "cafeName": "몰리스피크닉",
      "station": "홍대입구역",
      "address": "서울 마포구 와우산로29바길 10 2층",
      "start": "24.04.05",
      "end": "24.04.07",
      "openingHours": "12:00 ~ 18:00",
      "latitude": 37.556029,
      "longitude": 126.926091,
      "cafeImage": [
        "../poster/_gleamingripple.png",
        "../poster/_gleamingripple(2).png"
      ]
    },
    {
      "id": 10,
      "cafeId": 10,
      "groupName": "SEVENTEEN",
      "name": "MINGYU",
      "char": "🐶",
      "cafeName": "카페 쿠키드",
      "station": "합정역",
      "address": "서울 마포구 어울마당로5길 25 1층",
      "start": "24.04.04",
      "end": "24.04.06",
      "openingHours": "11:00 ~ 19:00",
      "latitude": 37.549295,
      "longitude": 126.919086,
      "cafeImage": [
        "../poster/April_sky_mg.png",
        "../poster/April_sky_mg(2).png"
      ]
    },
    {
      "id": 11,
      "cafeId": 11,
      "groupName": "SEVENTEEN",
      "name": "MINGYU",
      "char": "🐶",
      "cafeName": "뮤즈 시노님",
      "station": "홍대입구역",
      "address": "서울 마포구 와우산로29길 40-18, 2층",
      "start": "24.04.05",
      "end": "24.04.07",
      "openingHours": "12:00 ~ 19:00",
      "latitude": 37.555876,
      "longitude": 126.928209,
      "cafeImage": [
        "../poster/gamjamingyu__.png",
        "../poster/gamjamingyu__(2).png"
      ]
    },
    {
      "id": 12,
      "cafeId": 12,
      "groupName": "SEVENTEEN",
      "name": "MINGYU",
      "char": "🐶",
      "cafeName": "카페 틸다제이",
      "station": "홍대입구역",
      "address": "서울 마포구 독막로15길 3-6 2층",
      "start": "24.04.05",
      "end": "24.04.07",
      "openingHours": "11:00 ~ 19:00",
      "latitude": 37.555097,
      "longitude": 126.927638,
      "cafeImage": ["../poster/gyureat4646.png", "../poster/gyureat4646(2).png"]
    },
    {
      "id": 13,
      "cafeId": 13,
      "groupName": "SEVENTEEN",
      "name": "MINGYU",
      "char": "🐶",
      "cafeName": "노스폴",
      "station": "대구 중앙로",
      "address": "대구 중구 중앙대로 392, 4층",
      "start": "24.04.05",
      "end": "24.04.07",
      "openingHours": "13:00 ~ 20:00",
      "latitude": 35.868019,
      "longitude": 128.593903,
      "cafeImage": ["../poster/jelimonmon.png", "../poster/jelimonmon(2).png"]
    },
    {
      "id": 14,
      "cafeId": 14,
      "groupName": "SEVENTEEN",
      "name": "MINGYU",
      "char": "🐶",
      "cafeName": "카페보니",
      "station": "합정역",
      "address": "서울 마포구 합정동 363-29 1층",
      "start": "24.04.05",
      "end": "24.04.07",
      "openingHours": "11:30 ~ 20:00",
      "latitude": 37.547786,
      "longitude": 126.91699,
      "cafeImage": [
        "../poster/ParkMingyu_0406.png",
        "../poster/ParkMingyu_0406(2).png"
      ]
    },
    {
      "id": 15,
      "cafeId": 15,
      "groupName": "SEVENTEEN",
      "name": "MINGYU",
      "char": "🐶",
      "cafeName": "카페 데이즈",
      "station": "대구 반월당역",
      "address": "대구 중구 동성로 59 2층",
      "start": "24.04.03",
      "end": "24.04.07",
      "openingHours": "11:30 ~ 19:30",
      "latitude": 35.866661,
      "longitude": 128.595347,
      "cafeImage": [
        "../poster/SVT_HBDEVENT.png",
        "../poster/SVT_HBDEVENT(2).png"
      ]
    }
  ]
}
